{"type":"FeatureCollection","features":[{"type":"Feature","geometry":{"type":"Point","coordinates":[63.171383033269535,41.75063679345381]},"properties":{"Name":"Uzbekistan","March_MONT":172,"April_MONT":2039,"May_MONTHS":3623,"June_MONTH":8503,"July_MONTH":14294}},{"type":"Feature","geometry":{"type":"Point","coordinates":[59.17901605848879,39.19261774772365]},"properties":{"Name":"Turkmenistan","March_MONT":null,"April_MONT":null,"May_MONTHS":null,"June_MONTH":null,"July_MONTH":null}},{"type":"Feature","geometry":{"type":"Point","coordinates":[71.03752977492913,38.528939246492826]},"properties":{"Name":"Tajikistan","March_MONT":0,"April_MONT":15,"May_MONTHS":3930,"June_MONTH":5900,"July_MONTH":6643}},{"type":"Feature","geometry":{"type":"Point","coordinates":[74.5603888915287,41.4650474664768]},"properties":{"Name":"Kyrgyzstan","March_MONT":107,"April_MONT":746,"May_MONTHS":1748,"June_MONTH":5506,"July_MONTH":11977}},{"type":"Feature","geometry":{"type":"Point","coordinates":[67.25516612708176,48.157378760961564]},"properties":{"Name":"Kazakhstan","March_MONT":343,"April_MONT":3402,"May_MONTHS":10858,"June_MONTH":22308,"July_MONTH":63514}}]}